[
  { "name": "Main Gate",                              "lat": 4.849700,   "lng": 7.742600,   "category": "administration" },
  { "name": "Security Post",                           "lat": 4.849900,   "lng": 7.742800,   "category": "administration" },
  { "name": "Administrative Block",                    "lat": 4.850400,   "lng": 7.743100,   "category": "administration" },
  { "name": "Faculty of Agriculture",                   "lat": 4.850900,   "lng": 7.743500,   "category": "faculty" },
  { "name": "Dept. of Animal Science",                  "lat": 4.851000,   "lng": 7.743600,   "category": "department" },
  { "name": "Dept. of Crop Science",                    "lat": 4.851100,   "lng": 7.743300,   "category": "department" },
  { "name": "Dept. of Soil Science",                    "lat": 4.850800,   "lng": 7.743200,   "category": "department" },
  { "name": "Dept. of Fisheries & Aquaculture",         "lat": 4.851300,   "lng": 7.743700,   "category": "department" },
  { "name": "Dept. of Agricultural Economics & Extension","lat":4.851200,   "lng": 7.743800,   "category": "department" },
  { "name": "Faculty of Management Sciences",            "lat": 4.850200,   "lng": 7.744000,   "category": "faculty" },
  { "name": "Dept. of Accounting",                        "lat": 4.850300,   "lng": 7.743900,   "category": "department" },
  { "name": "Dept. of Business Administration",           "lat": 4.850100,   "lng": 7.744200,   "category": "department" },
  { "name": "Faculty of Social Sciences",                 "lat": 4.849900,   "lng": 7.743500,   "category": "faculty" },
  { "name": "Dept. of Economics",                          "lat": 4.849800,   "lng": 7.743600,   "category": "department" },
  { "name": "Dept. of Political Science",                   "lat": 4.849600,   "lng": 7.743400,   "category": "department" },
  { "name": "Dept. of Sociology & Anthropology",            "lat": 4.849500,   "lng": 7.743200,   "category": "department" },
  { "name": "Lecture Hall Complex",                         "lat": 4.850700,   "lng": 7.743600,   "category": "lecture" },
  { "name": "University Library",                           "lat": 4.850500,   "lng": 7.743400,   "category": "library" },
  { "name": "ICT/Computer Lab",                             "lat": 4.850000,   "lng": 7.743100,   "category": "lab" },
  { "name": "Chapel",                                       "lat": 4.849700,   "lng": 7.742900,   "category": "religion" },
  { "name": "Mosque",                                       "lat": 4.849500,   "lng": 7.742700,   "category": "religion" },
  { "name": "Cafeteria",                                    "lat": 4.850900,   "lng": 7.743800,   "category": "facility" },
  { "name": "Student Hostel A (Male)",                      "lat": 4.851400,   "lng": 7.743900,   "category": "hostel" },
  { "name": "Student Hostel B (Female)",                    "lat": 4.851500,   "lng": 7.744100,   "category": "hostel" },
  { "name": "Health Centre",                                "lat": 4.850700,   "lng": 7.744200,   "category": "health" },
  { "name": "Sports Field",                                 "lat": 4.850000,   "lng": 7.744400,   "category": "sports" },
  { "name": "Parking Lot",                                  "lat": 4.849900,   "lng": 7.742600,   "category": "facility" }
]
