[
  { "name": "Main Gate",                           "lat": 4.968611,   "lng": 7.755678,   "category": "administration" },
  { "name": "Security Post",                        "lat": 4.968911,   "lng": 7.755878,   "category": "administration" },
  { "name": "Vice-Chancellor's Office",            "lat": 4.970711,   "lng": 7.756478,   "category": "administration" },
  { "name": "Administrative Block",                "lat": 4.970611,   "lng": 7.756578,   "category": "administration" },
  { "name": "University Library",                   "lat": 4.970011,   "lng": 7.757378,   "category": "library" },
  { "name": "Central Cafeteria / Dining Hall",      "lat": 4.622079,    "lng":  7.765512,   "category": "facility" },
  { "name": "Health Centre / Clinic",               "lat": 4.971311,   "lng": 7.757778,   "category": "health" },
  { "name": "Sports Complex",                        "lat": 4.968911,   "lng": 7.757878,   "category": "sports" },
  { "name": "Student Union Building",                "lat": 4.970500,   "lng": 7.756200,   "category": "facility" },
  { "name": "Chapel",                                "lat": 4.969811,   "lng": 7.755900,   "category": "religion" },
  { "name": "Mosque",                                "lat": 4.970111,   "lng": 7.755600,   "category": "religion" },
  { "name": "Student Hostel A (Male)",               "lat": 4.970911,   "lng": 7.755878,   "category": "hostel" },
  { "name": "Student Hostel B (Female)",             "lat": 4.971011,   "lng": 7.756078,   "category": "hostel" },
  { "name": "Faculty of Engineering",                "lat": 4.971211,   "lng": 7.757278,   "category": "faculty" },
  { "name": "Dept. of Mechanical Engineering",       "lat": 4.971400,   "lng": 7.757600,   "category": "department" },
  { "name": "Dept. of Electrical/Electronic Engineering", "lat": 4.971500, "lng": 7.757000, "category": "department" },
  { "name": "Dept. of Civil Engineering",            "lat": 4.971600,   "lng": 7.756700,   "category": "department" },
  { "name": "Dept. of Chemical/Petrochemical Engineering", "lat": 4.971300, "lng": 7.757900, "category": "department" },
  { "name": "Faculty of Physical Sciences",          "lat": 4.969711,   "lng": 7.756278,   "category": "faculty" },
  { "name": "Dept. of Computer Science",              "lat": 4.969500,   "lng": 7.756900,   "category": "department" },
  { "name": "Dept. of Physics",                        "lat": 4.969200,   "lng": 7.756500,   "category": "department" },
  { "name": "Dept. of Mathematics",                    "lat": 4.622840,    "lng": 7.766440,   "category": "department" },
  { "name": "Faculty of Biological Sciences",           "lat": 4.971611,   "lng": 7.756678,   "category": "faculty" },
  { "name": "Dept. of Botany",                          "lat": 4.971500,   "lng": 7.756450,   "category": "department" },
  { "name": "Dept. of Zoology",                          "lat": 4.971700,   "lng": 7.756750,   "category": "department" },
  { "name": "Dept. of Microbiology",                     "lat": 4.971800,   "lng": 7.756900,   "category": "department" },
  { "name": "Faculty of Education",                       "lat": 4.969411,   "lng": 7.757178,   "category": "faculty" },
  { "name": "Dept. of Science Education",                  "lat": 4.969200,   "lng": 7.757400,   "category": "department" },
  { "name": "Dept. of Curriculum Studies",                 "lat": 4.969100,   "lng": 7.757000,   "category": "department" },
  { "name": "Lecture Halls Complex",                        "lat": 4.970200,   "lng": 7.756800,   "category": "lecture" },
  { "name": "ICT Centre",                                   "lat": 4.970300,   "lng": 7.756000,   "category": "lab" },
  { "name": "University Auditorium",                         "lat": 4.969900,   "lng": 7.757600,   "category": "facility" },
  { "name": "Open Pavilion",                                    "lat": 4.622572,    "lng": 7.763748,   "category": "facility" },
  { "name": "Bookshop",                                         "lat":4.620615,       "lng": 7.763109,   "category":"facility"}
]
